ward_code,village_name,latitude,longitude
RAB-URB-W01,Matupit,-4.2167,152.1833
RAB-URB-W01,Raluana,-4.2000,152.1700
RAB-URB-W02,Karavia,-4.2200,152.1900
KOK-URB-W01,Takubar,-4.3400,152.2600
KOK-URB-W02,Malakuna,-4.3500,152.2700
